"name","time","location","feature","image","url","latitude","longitude","area_id"
"花博記念公園鶴見緑地のヒマワリ","7月中旬～8月上旬","〒538-0036 大阪府大阪市鶴見区緑地公園2 花博記念公園鶴見緑地","平成2年に「国際花と緑の博覧会(花博)」が開催された会場跡地にある公園。園内は、約126haという大阪市と守口市にまたがる広大さで、大阪を代表する公園。シンボルの風車前の広場には、春にはチューリップが広がり、鮮やかな彩りを見せてくれる。また、夏はサルビア、秋はコスモスと花が次々と咲く。花の万博の際にパビリオンとして建設された「咲くやこの花館」(大人500円、中学生以下無料)には日本最大の温室があり、植物約2600種、約15,000株を温室、冷室8つのゾーンにわけて栽培展示する総合植物館で、世界各地の植物が一年中見られる。さらに緑の中でバーベキューやキャンプを楽しむことができる設備が整い、家族や仲間同士で気軽にアウトドア気分を味わうこともできる。","https://image-loconavi.tokubai.co.jp/w=400,h=400,a=2/uploads/photo/image/image/11927/93161f42-9176-4cfd-9755-96fcd3a1cbc6.JPG","http://www.tsurumi-ryokuchi.jp/ikimono/5478","34.710111","135.573707","5"
"世羅高原農場のヒマワリ","7月下旬～8月下旬","広島県世羅郡世羅町別迫1124-11 世羅高原農場","広島県の世羅町別迫にある観光農園で中国、四国地方では最大級のチューリップ畑。花畑は広さ約6ヘクタールに300種70万本のチューリップが咲き誇る。チューリップは色や種類ごとに帯状に植えられ、丘陵の段差を利用しての絶妙な配色が楽しめる。八重咲きで淡いピンクのホーランドプリンセスや枝咲きで明るい赤のオレンジブーケなど。白色の5品種を集めたコーナー「ホワイトガーデン」もある。また夏には100万本のヒマワリが咲き、秋には300品種2万5000株のダリア園を開園。収穫祭ではジャンボサイズの大根がとれるなど、地元では花の名所として多くの人たちに親しまれている。","https://image-loconavi.tokubai.co.jp/w=400,h=400,a=2/uploads/photo/image/image/14992/6ecb6a36-c134-48ce-973f-00a8413372dd.JPG","http://sera.ne.jp/","34.65563","133.042794","7"
"駒つなぎの桜","3月〜4月","長野県下伊那郡阿智村智里3557 駒つなぎの桜","阿智の星空駒つなぎの桜に満天の星が降り注ぐ","https://image-loconavi.tokubai.co.jp/w=400,h=400,a=2/uploads/photo/image/image/27441/b84fa2ca-828e-4bf5-a177-83a0481a263f.jpeg","https://www.hahakigi-kan.com/","35.460534","137.65974","4"
"房総フラワーライン","3月〜4月","千葉県館山市 房総フラワーライン","「房総フラワーライン」は千葉県館山市から南房総市までの約40キロメートルの海岸線の道路です。早春には菜の花、春にはノースポール、夏にはマリーゴールドなどが道路沿いに咲き誇り、季節の花を楽しめます。","https://image-loconavi.tokubai.co.jp/w=400,h=400,a=2/uploads/photo/image/image/34226/a454f7a4-8169-4ed6-acaf-729b027edaf0.JPG","http://tateyamacity.com/archives/292","34.933646","139.826358","3"
"中山高原の菜の花","3月〜4月","長野県大町市中山高原一帯","鹿島槍と菜の花大町市から長野市へ結ぶ県道沿いにある中山高原は何年か前のNHK朝の連続ドラマ「おひさま」の舞台になり有名になった。ここへは毎年見に行っているが、雪の溶けない北アルプスの山々と満開の菜の花を一緒に見ることが出来たのは、この十年で一度っきり。","https://image-loconavi.tokubai.co.jp/w=400,h=400,a=2/uploads/photo/image/image/26668/82dbf4b1-535c-42c4-902d-a0c895d1f050.JPG","https://www.go-nagano.net/topics_detail6/id=2731","36.566869","137.876824","4"
"ファーム富田","4月〜7月","北海道中富良野町基線北15号","テレビドラマ「北の国から」で知られるのが富良野のラベンダー畑。60年代から北海道のラベンダーは、一時は富良野地に適した花として次々と農家が生計の為に植えていた。だが、時代と共に値段の安い化学香料に押され、ほとんどの農家が作物栽培へと転換して姿を消してしまう。そんな中で、今では富良野の代表的な花畑として知られる『ファ−ム富田』の富田忠雄氏は、こんな状況の中でも孤軍奮闘して栽培を続けていた。だが、「もう来年はラベンダー畑をやめて整地しよう」と、思ったが、妻の助言もあり、1年だけ延期した。そして翌年の75年6月、ラベンダー畑がたまたま当時の国鉄のカレンダーに載り、その光景の美しさは魅せられ全国の人々が訪れ始めた。そんな人たちが感動する姿に、富田氏は励まされて再度、栽培に打ち込んだ。そして何とかラベンダーを生かそうと家族総出で作ったラベンダーの匂い袋や香水が富良野のお土産として評判になり、植物性香料の優秀性が見直された。一度は、あきらめようと思ったラベンダー畑には、遠くアジアなど海外からも含めて年間100万人以上の人々が訪れている。ラベンダーに打ち込んだ富田氏の熱意が生んだ、美しい花畑の風景に多くの人々は魅了されている。また、ファーム富田ラベンダー栽培50周年の2008年に「ラベンダーイースト」がオープン。ファーム富田より東へ約4キロメートルの場所にある。東には十勝岳連峰、南には夕張山地がそびえ立ち目の前には一面のラベンダー畑が広がり、ここでしか見られない贅沢な眺めが楽しめる。","https://image-loconavi.tokubai.co.jp/w=400,h=400,a=2/uploads/photo/image/image/24065/07352cf3-fe54-4390-94ca-ea04b346d415.JPG","http://www.farm-tomita.co.jp/","43.418158","142.428022","1"
"笛吹市の桃","3月〜4月","山梨県笛吹市石和町市部777","毎年4月上旬、扇状の甲府盆地はモモがいっせいに咲き誇り、淡い桃色の春色の海原と化す。それは、はるか見渡す限りの、壮大な桃源郷のよう。どこからどこまで歩いても桃色一色といった感じだが、とりあえず石和温泉を拠点に、モモの木が密集する一宮周辺を見て歩くのがいい。中央自動車道の下りパーキングエリアからも徒歩で専用道路で行ける“釈迦堂遺跡博物館” は、町を見おろす高台に建っている。ここからの眺めが抜群。よく晴れた日はピンク色の花畑の向こうに残雪の南アルプスの峰々が銀色に輝く。それをご馳走にピクニックしている家族連れやカップルも多い。花の期間中、市内各地でさまざまなイベントも開かれる。","https://image-loconavi.tokubai.co.jp/w=400,h=400,a=2/uploads/spot/placard/image/49020/2f34ad47-5134-4684-9a49-4191d873d1e3.jpg","","35.647366","138.639747","2"
"イングリッシュローズガーデン","6月〜9月","長野県北佐久郡軽井沢町長倉 軽井沢タリアセン","バラの育種家として著名なデイビッド・オースチンによって作り出されたイングリッシュローズを、約200種・1800株栽培しており、バラの愛好家にとって欠かせないスポットです。美しく咲くバラの香りに癒されながら園内を散策してみてはいかがでしょうか。","https://image-loconavi.tokubai.co.jp/w=280,h=280,a=2/uploads/photo/image/image/18029/ba8457c7-a366-44b8-aa1d-185a2132132f.JPG","http://www.karuizawataliesin.com/","36.328378","138.596903","4"
"いわみざわ公園バラ園のバラ","6月中旬～10月中旬","北海道岩見沢市志文町794","北海道岩見沢市にある「いわみざわ公園バラ園」の敷地は約 4万平方m。630種のバラが咲き乱れ、6月下旬から10月中旬頃まで楽しむことができます。中心となるローズガーデンには豪華な繰り返し咲きの大輪系品種を配し、アーチやスタンドにはつるバラを這わせて立体感を演出しています。","https://image-loconavi.tokubai.co.jp/w=400,h=400,a=2/uploads/spot/placard/image/52886/d96c2823-d2f3-4fbf-ba7d-dfbb488db56d.jpg","http://www.iwamizawa-park.com/","43.159377","141.784839","1"
"四季彩の丘","4月下旬〜10月下旬","北海道上川郡美瑛町新星 四季彩の丘","美瑛町の南東、丘の風景で有名なパノラマロードの小高い丘にある7haのお花畑。園内は、花畑の他、農産物直売所やお土産販売所、レストランなどがあり、芝生の広場、白樺林の遊歩道がある。展望花畑は、年間約30種類の花々が丘全体に散りばめられ、カラフルに咲く花の名所。写真の構図も考え、春にはアネモネやチューリップなど、秋はポピーやコスモスなど花が尽きないように計画的に植えらている。冬には雪化粧した丘でスノーモービルやスノーラフト等が楽しめます。景観をめいっぱい体感するには、園内をのんびり進むトラクターバスや、自分で運転することのできるバギーやカートを利用してみるのも良いでしょう。","https://image-loconavi.tokubai.co.jp/w=400,h=400,a=2/uploads/photo/image/image/11608/68ac43c9-34ce-447d-a0bd-017c09a00b62.JPG","http://www.shikisainooka.jp/","43.529173","142.465083","1"
"国営滝野すずらん丘陵公園","4月下旬〜10月下旬","北海道札幌市南区滝野247","名称の由来になっている「すずらん」をはじめ、約800種の草花が四季折々に美しさをみせてくれる北海道で唯一の国営公園です。アシリベツの滝を含む敷地は400ヘクタールと広大で、中心ゾーン、渓流ゾーン、滝野の森ゾーン(東エリア・西エリア)の4つに分かれています。中心ゾーンでは美しく整備されたガーデン、渓流ゾーンでは滝や川が、森では山野草が中心になっています。公園は四季を通じて花に溢れ、春はチューリップ、秋はコスモスが丘陵一面を彩ります。また、参加無料の「花のみどころガーデンツアー」も開催されます。東エリアには、バリアフリーの園路や遊具もあり、誰もが森林浴と森遊びを楽しむことができます。西エリアの「自然博物館」には、貴重な動植物の保全と再生により、北国の生態系が維持されています。","https://image-loconavi.tokubai.co.jp/w=400,h=400,a=2/uploads/photo/image/image/10460/f1c0dca2-887c-4aa3-bce5-21ee9a717430.JPG","https://www.takinopark.com/","42.913505","141.387007","1"
"横倉山織田公園","3月下旬～4月上旬","高知県高岡郡越知町横倉山","春には約100本のボタンザクラが咲く。また、登山道沿い約800mにわたりあじさいが植えられており、4月にはつつじも咲く。","","http://www.town.ochi.kochi.jp/kankou/look/odakouen.htm","33.535878","133.207833","6"
"神戸市立森林植物園","6月〜9月","兵庫県神戸市北区山田町上谷上字長尾1-2","六甲山系は明治中期までは、大部分がはげ山だったが、それが先人の努力により、現在の緑豊かな森林に育ってきた。昭和15年から整備がすすめられてきた森林植物園は、六甲山の緑化をすすめるためのシンボルとして建設されたもので甲子園球場の35倍以上という国内最大級の植物園。園内には六甲山をはじめ日本の代表的な樹木や世界各地の樹木を、原産地別に約1,200種が植栽されている。また、六甲山系にはたくさんのあじさいが自生していることもあり、園内にある「あじさい園」は名所としても有名でヤマあじさい、エゾあじさいなど20種類以上、約5万株のあじさいを栽培。西日本では、もっとも人気のあるあじさいスポットでもある。","https://image-loconavi.tokubai.co.jp/w=400,h=400,a=2/uploads/photo/image/image/10566/ce06137c-d8f7-42f5-a277-878763ddf84e.JPG","https://www.kobe-park.or.jp/shinrin/","34.740843","135.178097","5"
"十文字峠のしゃくなげ群落","6月上旬～6月中旬","中津川 秩父市 埼玉県 369-1903","登山経験が豊富で、自生するシャクナゲをご覧いただきたい方は十文字峠へお越しください。約7時間の登山道を歩くと山一面に広がるシャクナゲと原生林をご観賞いただくことができます。ただし、登山道はかなりの急登です。","https://image-loconavi.tokubai.co.jp/w=280,h=280,a=2/uploads/spot/placard/image/87993/29d0695d-38c4-4300-bfe4-9f6438fa935b.jpg","http://www.hut10monji.com/","35.942917","138.734607","3"
"由志園","4月〜5月","島根県松江市八束町波入1260-2 ","「由志園」は、昔から牡丹の一大産地として有名な「大根島」という島にある日本庭園です。広大な1万坪の土地には所狭しと3万輪以上の牡丹や芍薬が咲き広がっています。一般的に牡丹のシーズンは4月から6月前半ですが、由志園では1年中鑑賞が可能。さらに、園内各所に庭を眺めながら味わえる食事処が併設されており、訪れた方にはぜひ召し上がっていって欲しい名産の蕎麦や地元素材を使った郷土料理、会席料理が魅力です。また、そのほかにも江戸時代から200年以上続く「雲州人蔘」の栽培も行っています。大根島は鳥取県の境港市や米子市などにも面した中海に浮かぶ島で車でも簡単にアクセスができるのも嬉しいポイント。夜はライトアップやイルミネーションなどのイベントも開催されることがあるので、ぜひチェックしてお出かけくださいね。","https://image-loconavi.tokubai.co.jp/w=400,h=400,a=2/uploads/photo/image/image/20004/9be28beb-73f4-40c0-89ae-8947c4c6aa3d.jpeg","http://www.yuushien.com/yuushien/","35.491357","133.176476","6"
"英雄寺","4月〜5月","大分県竹田市大字会々2033","「英雄寺」は中川二代久盛公が祖父の菩提を弔うため、1644年に建立したお寺です。境内には隠れキリシタンの秘佛であるマリア像があり、本堂では絵天井を見ることができるなど、厳かな雰囲気を感じることができます英雄寺はボタンの花が美しいことでも知られており、春になると岡藩主中川秀成公が持ち帰ったとされる朝鮮ボタンが花を咲かせ、色鮮やかなボタンを見ようと全国から多くの観光客が足を運んでいます。毎年4月下旬には「ぼたん祭り」が開催されており、咲き誇るぼたんの花々を鑑賞できるだけでなく、「ぼたん酒」がふるまわれます。大分県武田市内でも随一のボタンの名所ですので、美しい景色を堪能しに訪れてみてはいかがでしょうか。","https://image-loconavi.tokubai.co.jp/w=400,h=400,a=2/uploads/spot/placard/image/85795/fce00d42-1ef7-4ffe-8319-9b23da02182c.jpg","https://www.taketan.jp/spots/detail/43","32.97162","131.398758","8"
"春日大社 萬葉植物園","4月〜5月","奈良県奈良市春日野町160","萬葉植物園にて御衣黄桜という桜です、藤の花と同じ時期に見頃を迎えます。","https://image-loconavi.tokubai.co.jp/w=400,h=400,a=2/uploads/photo/image/image/13760/d6b39de4-1193-4949-821a-1c86fd570d49.JPG","http://www.kasugataisha.or.jp/h_s_tearoom/manyou-s/index.html","34.682276","135.844574","5"
"三大神社の砂擦りの藤","4月〜5月","滋賀県草津市志那町309 三大神社","条里集落、遺構地吉田の中心部にある「三大神社」は、志那津彦命と志那津姫命を祭神として祀っている神社です。参道を進んだ先にある境内には拝殿が、奥側には社殿が並び、厳かな雰囲気があります。本殿の傍らにある六角形の石燈籠は鎌倉時代に作られたものと言われ国指定の重要文化財で、工芸品である朱漆塗大般若経経箱は室町時代の作とされ草津市指定文化財に指定されました。境内にある藤は地面に擦ってしまいそうなほどの花房をつける「砂擦りのふじ」が美しく、見ごろの時期がくるとライトアップも行われるため、幻想的な雰囲気を楽しもうと多くの観光客がふじを愛でに足を運んでいます。長い歴史がある三大神社で貴重な文化財や藤の花を楽しみながら、参拝をしてみてはいかがでしょうか。","https://image-loconavi.tokubai.co.jp/w=400,h=400,a=2/uploads/spot/placard/image/85810/de84a4c8-c4c7-43f0-9a6d-f15131a00037.jpg","https://www.biwako-visitors.jp/spot/detail/161","35.048325","135.937234","5"
"東山動植物園の睡蓮","6月～8月","愛知県名古屋市千種区東山元町3-70","名古屋市の「東山動植物園」は、丘陵地を利用して昭和12年（1937年）に造園された動植物園。その植物園では、現在約7,000種もの植物が展示され、その他にも国指定重要文化財の「温室」や、世界遺産にもなった岐阜県・白川郷から移築した「合掌造りの家」などもあります。この合掌造りの家は昭和31年に移設された貴重な建物で、家の中を一部観覧することもできます。そして、その白川郷から移築した合掌造りの家の前にある「奥池」の水面に広がっているのが、睡蓮になります。合掌造りの家と池に広がる蓮が、とても情緒ある風景になります。","https://image-loconavi.tokubai.co.jp/w=400,h=400,a=2/uploads/spot/placard/image/52543/800302ae-39f2-401c-802b-9201977df7d3.jpg","http://www.higashiyama.city.nagoya.jp/","35.160102","136.977709","4"
"草津市立水生植物公園みずの森の蓮・睡蓮","6月下旬～8月下旬","滋賀県草津市下物町1091番地","滋賀県草津市の「草津市立水生植物公園みずの森」は、琵琶湖に面した植物園。睡蓮の種類は100種類以上あり、夏の見頃には蓮、睡蓮、パラグアイオニバスなどが園内を彩る名所です。また、8月下旬～9月上旬にかけてはパラグアイオニバス試乗会の子供向け試乗会（30kgまで）も行われており、家族連れにもおすすめです。ほか、屋内施設の「ロータス館」では熱帯の睡蓮を中心に国内外の水生植物を集めており、草津市立水生植物公園みずの森では1年中花が楽しめます。","https://image-loconavi.tokubai.co.jp/w=400,h=400,a=2/uploads/spot/placard/image/53015/1f1746db-ac9c-45c0-8be9-db495a587431.jpg","http://www.seibu-la.co.jp/mizunomori/","35.074044","135.940466","5"
"メタセコイア並木","11月下旬～12月上旬","滋賀県高島市 メタセコイア並木","滋賀県高島市のメタセコイア並木。味覚狩りなどを楽しめるマキノ農業公園「マキノピックランド」からマキノ高原へ約2.4kmにわたり、道の両側に約500本のメタセコイアが植えられています。1981年（昭和56年）から翌年にかけ植栽されました並木道で、現在ではまっすぐ続く道に並ぶ美しいメタセコイアは全国に知れ渡るようになりました。春から夏の新緑や秋の紅葉、冬の雪景色など、四季に応じて美しさを楽しめるスポットです。","https://image-loconavi.tokubai.co.jp/w=400,h=400,a=2/uploads/photo/image/image/7686/1cf59ab0-6d51-491f-9db1-aa145ab17c9f.jpg","http://xn--ncke3dzaw0b5dze4d.com/","35.475961","136.036685","5"
"太陽が丘ゆうひみ公園のメタセコイア","11月下旬～12月上旬","石川県金沢市太陽が丘 太陽が丘ゆうひみ公園","メタセコイア並木と言えば、滋賀県のマキノ町が有名ですが、金沢にも結構きれいなメタセコイア並木があるんです。","https://image-loconavi.tokubai.co.jp/w=400,h=400,a=2/uploads/photo/image/image/7066/76bc2e09-2196-437c-a3a3-65bbc7b3f8c9.jpg","https://www.hot-ishikawa.jp/spot/21472","36.533701","136.705732","4"
"雄国沼のミズバショウ","5月下旬～6月上旬","福島県耶麻郡北塩原村","福島県中北部、磐梯(ばんだい)山西方、猫魔ヶ岳や雄国山などを外輪山にもつカルデラ湖。標高1,000mの位置にあり周囲の山々はブナが多く、湖岸の湿原にはミズバショウ、ニッコウキスゲ、ヒオウギアヤメなどの群落があり、約280種の湿原植物群落は国の天然記念物に指定されている。なかでも、6月末〜7月初めには沼の南の湿原地帯では、ニッコウキスゲの大群落が咲き誇る。かつては沼の面積は現在の半分程であったが、江戸時代初期に大塩平左衛門がおこなった、かんがい工事により面積が拡大したもの。今ではニッコウキスゲの大群落を観に全国から多くの人々が訪れる。","https://image-loconavi.tokubai.co.jp/w=280,h=280,a=2/uploads/photo/image/image/31999/12607846-600f-44da-acc2-1a9f420e4faa.jpg","https://www.urabandai-inf.com/?page_id=24986","37.655665","139.937308","2"
"ハチ北・水芭蕉の里","4月中旬〜5月上旬","兵庫県美方郡香美町岡区大笹","鉢伏山の北、標高700ｍ付近にある「ハチ北みずばしょうの里」では、休耕田を利用してミズバショウを栽培。ハチ北スキー場の中の『北壁トリプルリフト』から少し歩くと池があり、そこに咲いている。山肌を利用した棚田に関西で最大規模という約12000株ものミズバショウが植えられており、雪解けとともに花を咲かす。ミズバショウは、地元で宿を営む田辺鎮夫さんが、還暦を機に自前の休耕田を利用して栽培を始めた。初年は種子を取り寄せ、苗作りから手掛け、年ごとに面積と本数を増やし、今では30アールの一帯はミズバショウの里として知られ、シーズンには関西方面などから観光客も多く訪れる。棚田の一部にはザゼンソウも植えられており、ミズバショウの花と同じ頃に花が見頃を迎える。","","https://kitakinki.gr.jp/spot/1679","35.632186","134.629178","5"
"兵庫県立フラワーセンターのサルビア","6月下旬〜8月下旬","兵庫県加西市豊倉町飯森1282−1 兵庫県立フラワーセンター","園内中央には豊かな水に水鳥が遊ぶ亀の倉池を配し、背に野鳥のつどう緑濃い飯盛山を取り込んだ、約46haにおよぶ松の自然林をそのままに生す全国でも有数の花の公園。池を巡る遊歩道を歩けば、季節の花が咲き競う四季の花壇、大温室、花と彫刻の道、かおりの森など、約4,500種類の花々が咲く。園内の中央にある亀の倉池の近くには大小さまざまな花壇が展開。中央花壇、四季の花壇、池辺の花壇等合わせて12,000㎡の花壇は、春にはチューリップ、夏から秋にはサルビア、マリーゴールド、ベゴニア・センパフローレンス、菊、冬はパンジー、ハボタンなどで埋めつくされる。4月の春からは460品種22万本のチューリップが次々と開花します。","https://image-loconavi.tokubai.co.jp/w=400,h=400,a=2/uploads/spot/placard/image/40430/ac27a2ba-3576-4b9b-bf3c-2bac4089cbe6.jpg","http://www.hyogo-park.or.jp/flower-center/","34.907757","134.859368","5"
"かんのファームのラベンダー","6月中旬〜10月上旬","北海道空知郡上富良野町西12線北36号","上富良野町と美瑛町の境界、美馬牛峠で花と味覚が楽しめる観光農園のかんのファーム。ラベンダーのほか、サルビア、アマランサス、ストロベリーフィールドなど、約10種類の花を始めとする作物を栽培する丘の農園。上富良野町の北部に位置し、美瑛町との境界にある国道237号線に面しています。色とりどりの花畑は虹のようにも見え、緩やかな斜面で見渡せる圧巻の景色。かんのファームでは、早咲きと遅咲きのラベンダーが植えられているため、6月中旬より10月上旬まで長い期間ラベンダーの美しい景色を楽しめます。また、他のラベンダー畑では同じ種類のラベンダーが植えられていることが多いですが、かんのファームのラベンダーは、複数の種類のラベンダーが植えられているため、色、形、大きさの異なるラベンダーを観賞できる点が嬉しい。","https://image-loconavi.tokubai.co.jp/w=400,h=400,a=2/uploads/spot/placard/image/52903/de7d4914-c9e3-4e0c-b608-e85986435e74.jpg","http://www.kanno-farm.com/","43.542853","142.438902","1"
"多摩川台公園","3月～6月","東京都大田区田園調布1丁目63−1 区立多摩川台公園","多摩川に沿って約750mつづく細長い公園。広大な敷地内には亀山古墳を中心に、自然林の道や展望台、四季の野草園や水 生植物園など、田園調布に残る豊かな自然を生かした見どころが多い。公園の一角にあるあじさい園は、昭和62年4月に水生植物園、野草園とともに開設された。ガクあじさいや西洋あじさいなど約7種類、 3000株のあじさいが南側の園内にいっぱい に咲く。春先はサクラの名所として賑わい、四季折々ホタルブクロ、彼岸花などの花も楽しめる。","https://image-loconavi.tokubai.co.jp/w=400,h=400,a=2/uploads/photo/image/image/9016/95d83757-30c1-4d30-b8f3-fc1c0b51399d.jpeg","https://ja.wikipedia.org/wiki/%E5%A4%9A%E6%91%A9%E5%B7%9D%E5%8F%B0%E5%85%AC%E5%9C%92","35.590149","139.666953","3"
"本光寺のあじさい","6月〜9月","愛知県額田郡幸田町大字深溝内山17","戦国最強の三河武士といわれた「深溝松平家」の菩提寺。別名、三河の「あじさい寺」とも呼ばれ、近県では屈指のあじさいの名所となっている。1万坪の境内に15種類、約1万本のあじさいが山門への参道、寺社内各所に植えられている。あじさいの紫と山門の朱色が美しいが、境内の本堂前の梅林の中にも、あじさいが咲き乱れている。また、世界の椿を集めた「三河椿の郷」や境内に植えられた梅も見ごたえがある。","https://image-loconavi.tokubai.co.jp/w=400,h=400,a=2/uploads/photo/image/image/7881/8cda5198-2bbf-4abc-88ec-c607b0230e8f.jpg","","34.83735","137.182091","4"
"びわこ箱館山ゆり園","2021年6月30日(水)〜2021年10月14日(木)","滋賀県高島市今津町日置前4201-4 びわこ箱館山ゆり園","天気良し、視界良し、景色良し、夏の雰囲気よし、琵琶湖良し、夏雲良し、そして百合の花良し！来年もまた来ます😉","https://image-loconavi.tokubai.co.jp/w=400,h=400,a=2/uploads/photo/image/image/11982/ab9fbab1-1f2a-41df-a14f-a30dcb291765.JPG","http://www.hakodateyama.com/green/","35.43698","135.987896","5"
"南くりこま高原一迫ゆり園","5月〜7月","宮城県栗原市一迫真坂清水堰田 一迫ゆり園","昭和63年「何もない町と言われてはたまらない」。そんな気持ちで若手有志15人が「町おこし会」を設立。研究会を重ねている時、会員の一人が「町の山間地にはヤマユリが咲いている。自分もスカシユリを栽培している」と、こんな話しからユリをテーマとした町おこしをしようと、会の名称を「町おこしユリの会」と改め、ユリでの町おこしがスタート。平成2年には試験園を開園。翌平成3年には会員手づくりの「南くりこま高原・一迫ゆり園」が完成。今では毎年多くの来園者が訪れ、3万平方mの敷地に拡張。小高い丘の起伏をそのまま生かして造られた園内には「「やまゆりの森」や「ハーブ館」、「ヘメロカリス園」も整備し、6月中旬から7月下旬までユリ約200品種15万球、ヘメロカリス約50品種2万株、ハーブ約80品種の美しい彩りの花や香りが、訪れた人々の心を和ませてくれる。また、収益金の一部で地域づくり団体や、花をテーマとしたまちづくりを行う団体への支援事業を行っている。","https://image-loconavi.tokubai.co.jp/w=400,h=400,a=2/uploads/photo/image/image/12162/59cb65d1-7ce6-4907-9c81-7ea36170d45e.jpeg","","38.728236","140.944097","2"
"堀切菖蒲園","6月〜7月","東京都葛飾区堀切2丁目19-1 区立堀切菖蒲園","江戸時代に全国で初めて誕生したの堀切の菖蒲園。当時は、江戸時代の安藤広重の「名所江戸百景 」にも登場。徳川斉昭公からは「日本一の花菖蒲」と折り紙がつけられたほど。また文化年間(1804～1817)当地の農民、伊左衛門が趣味で各地の花菖蒲を集めて庭で栽培したのが始まりと伝えられる。葛飾区は、江戸川や荒川、中川に取り囲まれている水郷的景観を持った地域。水湿地を好む花菖蒲には最適の環境ともいえる。水を簡単に引ける場所なら、花菖蒲を栽培するには適した地で、今では貴重な江戸系花菖蒲を中心に約200種類、6000株の花菖蒲が植えられている。6月には「葛飾菖蒲まつり」を毎土曜日、日曜日には開催。菖蒲園だけではなく、その周辺地域を大きな会場として、パレードや縁日、歌謡ショーにバザーなど盛大な催し物も開かれ、町全体がにぎやかに彩られる時期をむかえます。","https://image-loconavi.tokubai.co.jp/w=400,h=400,a=2/uploads/photo/image/image/9382/bca3508c-3a30-4adb-b295-2177f588ee82.jpg","http://www.city.katsushika.lg.jp/institution/1000096/1006888.html","35.742591","139.825743","3"
"水元公園","6月上旬～8月","東京都葛飾区水元公園3−9 都立水元公園","南蔵院のすぐ裏手にある水元公園は、小合溜に沿って造られた、都内で唯一水郷の景観をもった公園です。水元公園は小合溜に沿って造られた、都内で唯一水郷の景観をもった公園です。昭和50年まで、このあたりは都立江戸川水郷自然公園に指定されていました。小合溜から引いた大小の水路が園内を走り、水郷景観を作りだしています。園内にはポプラ並木やメタセコイアの森、ハンノキなど水辺に強い樹木が生育し、ハナショウブ、スイレン、コウホネといった水生植物を多く見ることができます。水元公園は桜や花菖蒲の名所としても有名です。3月下旬から4月上旬にかけては美しい遊歩道の桜を、6月上旬から下旬には約100品種20万本の花菖蒲を楽しむことができます。また、花菖蒲の季節には菖蒲祭りも開催されます。桜や花菖蒲の咲く季節はもちろんですが、水元公園では一年を通して美しい景観が楽しめます。釣り場、ポプラ並木、「生きた化石」メタセコイヤの森、中央広場、フィールドアスレチックス、バードサンクチュアリーがあり、都の天然記念物「オニバス」や絶滅危惧種「アサザ」の自生地としても知られています。","https://image-loconavi.tokubai.co.jp/w=400,h=400,a=2/uploads/photo/image/image/12835/cd01154b-1502-4d54-9f05-8af96b96c8cf.JPG","http://www.tokyo-park.or.jp/park/format/index041.html","35.784933","139.869696","3"
"金剛證寺の睡蓮","6月上旬～8月","三重県伊勢市朝熊町548","空海ゆかりの古寺の池の水面を睡蓮が覆いつくす三重県伊勢市の朝熊岳（あさまだけ）の山頂にある空海ゆかりの古刹が「金剛證寺（こんごうしょうじ）」。伊勢神宮の鬼門を守る寺としても有名です。寺の創建は欽明時代の御代（6世紀後半）、暁台上人によって開かれたと伝えられています。伊勢神宮の鬼門を守る寺としても有名で、「お伊勢参らば朝熊をかけよ、朝熊かけねば片参り」と伊勢音頭の一節にも唄われ、伊勢神宮へお参りする人々はこのお寺にも参詣するのが習わしでした。ここ金剛證寺の連間の池では、6月下旬から8月の見頃を迎えると、数百もの睡蓮が水面を覆う名所になります。","https://image-loconavi.tokubai.co.jp/w=400,h=400,a=2/uploads/spot/placard/image/52921/0561ead3-4f9b-439b-affd-d9b416e3696d.jpg","https://www.kankomie.or.jp/event/detail_9362.html","34.457411","136.785476","5"
"弘前公園のハス","7月中旬〜8月下旬","青森県弘前市下白銀町1−1 弘前公園","津軽統一を果たした津軽氏の居城。弘前城天守や櫓、城門が当時の姿を伝える。津軽統一を果たした初代藩主、為信（ためのぶ）が慶長8年（1603年）に計画、2代藩主 信枚（のぶひら）が慶長16（1611年）に完成させた城。広さ約49.2ha、東京ドーム10個分以上の敷地は、三重の濠と土塁に囲まれ、6つの郭で構成されている。現在の天守は文化8年（1811年）に再建され、弘前城史料館として藩の史料を展示し、当時の風情を偲ばせている。園内の桜は、正徳5年（1715年）、西の郭に25本の桜を植えたのが最初と伝えられる。現在の桜は、明治維新後、荒れ放題のお城を見た旧藩士が少しずつ植えていき、昔の姿を取り戻そうと大部分は明治以降に植えられたもの。天守閣を中心にソメイヨシノをはじめシダレザクラ、ヤエザクラなど約50種2,600本の桜が咲き誇り、春は大勢の人出で賑わう。また弘前公園は、毎年7月中旬から8月下旬にかけて蓮の名所になる。「蓮池濠」や「石橋」付近で古代蓮、弘前公園西側の工業高校口近くの蓮池では蓮の群生が咲き誇り、暑い夏に涼しさをもたらす。","https://image-loconavi.tokubai.co.jp/w=400,h=400,a=2/uploads/spot/placard/image/49213/bebacd57-5e14-4275-93a6-87e5ccb501de.jpg","http://www.hirosakipark.jp/","40.604784","140.463599","2"
"やまがた川西ダリヤ園","9月〜10月","山形県東置賜郡川西町大字上小松1567","日本で初めて昭和35年に川西町を代表する観光地づくりを目指しダリア園をオープン。平成11年には場所を移し、内容も広さも大きくなってオープン。現在、約2.1haの敷地が拡大されて4haになり世界中から集めた650種、約10万本が咲き誇り国内最大級のダリア園。園内には花壇を縫うように遊歩道が配置され、ゆったりと観賞でき、近くには宿泊可能な温泉保養施設「浴浴センターまどか」もある。毎年9月には「東北ダリヤ名花展」が開催され、町をあげてダリア栽培の普及に努力しており、新たな品種を生み出すまでになっている。このように、ダリアとの関わりが深い川西町では、“ダリア”ではなく“ダリヤ”と呼んでいる。これは昔からの呼び方を町の人々が忠実に守っているためである。","https://image-loconavi.tokubai.co.jp/w=400,h=400,a=2/uploads/spot/placard/image/49017/636adc6e-ae63-49d7-a695-6c738b3d697a.jpg","http://www.town.kawanishi.yamagata.jp/dariya/","38.004482","140.045787","2"
"湯遊ランドはなわダリア園","8月～10月","福島県東白川郡塙町大字湯岐字立石21","奥久慈の山並みに抱かれた塙町では、町ぐるみでダリアの栽培に取り組んでいる。宿泊施設でもあり、キャンプ施設を併設した公営の温泉浴施設「湯遊ランドはなわ」に隣接する敷地内に大輪系、ポンポン系、変わり咲き系、中輪系などのダリアが緑豊かな山間で300種類、約5,000株が華麗に咲き誇る。園内には2メートルほどの高さになる赤と黄色が特徴的な「ジェシカ」などの花が色鮮やかに咲き誇る。花の期間中にはダリアをテーマにしたイベントも企画されている。また、町内の小学校、中学校、また老人会でもダリアを栽培し、町内にはミニダリア園が21ヵ所あり、町民全体で取り組んでいる。","https://www.yuyu-land.com/yuyu_wp/wp-content/uploads/2018/03/daria07.jpg","https://www.yuyu-land.com/dahlia/","36.891187","140.482456","2"
"雄国沼のニッコウキスゲ","6月下旬～7月上旬","福島県耶麻郡北塩原村","福島県中北部、磐梯(ばんだい)山西方、猫魔ヶ岳や雄国山などを外輪山にもつカルデラ湖。標高1,000mの位置にあり周囲の山々はブナが多く、湖岸の湿原にはミズバショウ、ニッコウキスゲ、ヒオウギアヤメなどの群落があり、約280種の湿原植物群落は国の天然記念物に指定されている。なかでも、6月末〜7月初めには沼の南の湿原地帯では、ニッコウキスゲの大群落が咲き誇る。かつては沼の面積は現在の半分程であったが、江戸時代初期に大塩平左衛門がおこなった、かんがい工事により面積が拡大したもの。今ではニッコウキスゲの大群落を観に全国から多くの人々が訪れる。","https://image-loconavi.tokubai.co.jp/w=400,h=400,a=2/uploads/photo/image/image/31999/12607846-600f-44da-acc2-1a9f420e4faa.jpg","https://www.urabandai-inf.com/?page_id=24986","37.655715","139.937374","2"
"野反湖のニッコウキスゲ","6月下旬～7月上旬","群馬県吾妻郡中之条町入山","長野県との県境に近い中之条町の北部に位置する野反湖は、標高2,000m級の山々に囲まれた高原の湖。周囲12km、標高1,514ｍのダム湖で、その湖水は魚野川から信濃川に合流し日本海にそそぐ。春から秋にかけては、釣りやキャンプ、ハイキングなどを楽しむ人々でにぎわう。もともとは尾瀬のような湿地帯で、野反池と呼ばれる池があったが、昭和31年に発電用の野反ダムが建設され、現在のようなダム湖になった。群馬県では珍しく、その湖水は魚野川、信濃川を経て日本海へ流れている。湖畔ではニッコウキスゲが咲くが地元の名前のノゾリ(野反)キスゲの名で親しまれている。高原の原生林に囲まれたダム湖は、遠くからは天然湖のようなたたずまいを見せている。","https://image-loconavi.tokubai.co.jp/w=400,h=400,a=2/uploads/spot/placard/image/49041/974400f6-7cbb-45db-b0da-a2422eb012f4.jpg","https://forestpost-jp.com/2021/06/09/nozoriko-nikkokisuge/","36.646969","138.648395","3"
"長福寿寺のベニバナ","5月〜7月","千葉県長生郡長南町長南969","長福寿寺は、およそ1200年の昔、延歴17年(798)に桓武天皇の勅願により、伝教大師により創建された由緒ある寺。特にご本尊の福寿あみだ様は、別名""お元気あみだ""とも呼ばれ健康・元気・長寿の御利益が高いことで知れる。境内にベニバナの花畑があり、毎年、6月中旬には「ベニ花フェステバル」を開催。長福寿寺によると、房総半島はベニバナのふるさと。平安時代の末期に、京から赴任してきた菅原道真の子の善智麿の弟が長南に居を構え、地元にベニバナの栽培を奨励したのがはじまりという。その後、長南地方が武田氏により攻められ、菅原氏の末裔が山形の地に逃げ延び、ベニバナの栽培をするようになったという。現在、「べに花を育てる会」の活動により、三途台長福寿寺の境内にベニバナが見事に復活し、10万本の花が可憐な花を咲かせている。咲き誇ると一面が山吹色となり、長福寿寺の根本中堂との絶妙な組み合わせにより見事な花風景を魅せてくれる。","https://image-loconavi.tokubai.co.jp/w=400,h=400,a=2/uploads/spot/placard/image/49053/b4952ac1-1e99-4191-b677-f4079a3df870.jpg","https://ja.wikipedia.org/wiki/%E9%95%B7%E7%A6%8F%E5%AF%BF%E5%AF%BA","35.401829","140.229457","3"
"高瀬地区の紅花","5月〜7月","山形県山形市高瀬地区","アニメ映画『おもひでぽろぽろ』の舞台になった地区。高瀬紅花ふれあいセンター周辺や高沢地区などで美しい紅花畑を見られる。7月上旬には紅花のプレゼントや写真撮影会、紅花染め体験などが楽しめる山形紅花まつりが開催される。","https://image-loconavi.tokubai.co.jp/w=400,h=400,a=2/uploads/spot/placard/image/49054/26b2e622-f985-4dbe-b972-d05848d79a6f.jpg","https://rurubu.jp/andmore/spot/80004372","38.301597","140.396015","2"
"山中湖花の都公園の百日草","7月中旬～10月上旬","山梨県南都留郡山中湖村山中1650番地 山中湖花の都公園","河口湖から山中湖へ向かう途中、左側に入ると突然と花畑が広がる。富士山に一番近い湖のほとり、標高1,000mの高原にあるのが花の都公園。園内の約30万平方mにも及ぶ広大な敷地には季節ごとに花の群落が楽しめ、有料施設の全天候型温室フローラルドーム「ふらら」やフラワーショップなどがある。8月には約30万本のひまわりが咲き誇り、夏の富士山をバックに見応えのある風景を魅せる。さらに同じ時期の7月中旬～10月上旬ごろには約100万本の百日草も楽しめる。","https://image-loconavi.tokubai.co.jp/w=400,h=400,a=2/uploads/spot/placard/image/48645/81fbd1ff-e50b-4df2-a6af-f272f87f99c4.jpg","http://www.hananomiyakokouen.jp/","35.440499","138.853542","4"
"富士見高原花の里","5月〜7月","長野県諏訪郡富士見町境12067","冬場は「富士見高原スキー場」のゲレンデに 2004年7月「ゆりの里」が開園。静岡県の「可睡ゆり園」が提携し、30種類以上500万本のユリが植えられ夏には花が咲き乱れる。現在は名前を変えて「花の里」として運営。ユリの群落の場所は、第2ゲレンデ全体とスキー場下部南方の林の中、それに第1ゲレンデのシングルリフトの直下、第1ゲレンデの山頂駅上部。中でも、白樺林の中に群生する「白樺ゆり園」のユリは一段と艶やかで、真っ白な白樺の木々とのコントラストが美しい。さらに高台にある「展望ゆり園」は、目の前に広がる色鮮やかなユリと南アルプスを望むことができ、そこからの風景は高原の夏を感じさせる。","https://image-loconavi.tokubai.co.jp/w=280,h=280,a=2/uploads/spot/placard/image/29730/b0347f18-272a-4f55-932e-87ff1316b5c8.jpg","http://fujimikogen-ski.jp/","35.916992","138.307875","4"
"天空の花畑のコスモス","7月中旬～10月上旬","静岡県裾野市須山字藤原2427  遊園地ぐりんぱ内","富士山の2合目にある遊園地「ぐりんぱ」内にある天空の花畑。毎年7月中旬頃から10月上旬にかけて天空のダリア祭りが開催され、青空と富士山をバックに3万株のダリア、2千株のサンパチェンス、6万本のコスモスが順次綺麗な花を咲かせます。","https://image-loconavi.tokubai.co.jp/w=280,h=280,a=2/uploads/spot/placard/image/60264/19515275-7e1f-463c-a39a-28ea1fca629f.JPG","http://www.tenku-hanabatake.com","35.290958","138.782658","4"
"布引風の高原のコスモス","8月下旬〜10月中旬","福島県郡山市湖南町赤津 布引高原","福島県郡山市の布引高原。高原の標高は約1,000ｍあり、磐梯山や猪苗代湖が一望できる絶景スポットです。周囲には、高さ100ｍの風力発電を行う風車が33基立ち並んでいることから「風の高原」と呼ばれています。毎年夏の終わりから秋口にかけて、布引風の高原の記念碑の付近にコスモスが咲き誇ります。赤、ピンク、白、濃紫などが混合した色鮮やかなコスモスの絨毯は、訪れる人を幸せな気持ちにさせてくれます。なお、布引風の高原のコスモスは、例年8月下旬から9月中旬頃が見頃のピークになることが多いです。","https://image-loconavi.tokubai.co.jp/w=400,h=400,a=2/uploads/spot/placard/image/95345/6dc8f511-bb46-41ae-8b6b-8e8e2fcb0270.jpeg","https://www.kanko-koriyama.gr.jp/tourism/detail1-0-12.html","37.335624","140.05003","2"
"三ツ石山の紅葉","9月中旬","岩手県岩手郡雫石町（その他） 県道212号線","東北百名山に選ばれている三ツ石山の紅葉は、例年9月上旬から色づきが始まり、見頃は9月中旬頃です。裏岩手縦走路の上にある山で、ナナカマドやミネカエデの紅葉を見ることができる、岩手県内で最も早く紅葉が見られるスポットです。","https://image-loconavi.tokubai.co.jp/w=280,h=280,a=2/uploads/spot/placard/image/102060/a9d81d3a-d0c7-46de-be2d-1a3a4f31ac0c.jpg","http://shizukuishi-kanko.gr.jp/","39.851511","140.896082","2"
"能取湖の紅葉","9月上旬〜9月下旬","北海道網走市卯原内60-3 能取湖サンゴ草群生地","能取湖に広がるサンゴ草の紅葉網走市にある湖「能取湖（のとろこ）」は、北海道屈指のサンゴソウの群落地。「真紅のカーペット」と呼ばれる美しい景色が広がります。ここ数年生育不良時もありましたが地域の方々の保護育成により回復。見頃は例年9月中旬から下旬で、9月上旬には卯原内地区で「能取湖サンゴ草祭り」も開催するので合わせて訪れるのもおすすめ。全国から訪れる人が絶えない絶景スポットです。","https://image-loconavi.tokubai.co.jp/w=400,h=400,a=2/uploads/spot/placard/image/77276/2b3feacf-979a-4c60-9c75-69379c35d9eb.jpg","http://abashiri.jp/tabinavi/index.html","44.013589","144.116206","1"
"廬山寺のキキョウ","6月〜10月","京都府京都市上京区北ノ辺町397","紫式部邸宅跡として知られ、毎年2月の節分に行われる「鬼おどり」が有名。7月～8月には紫の桔梗の花が源氏庭に美しく咲く。","https://image-loconavi.tokubai.co.jp/w=400,h=400,a=2/uploads/spot/placard/image/49014/08bbdfe0-ccd4-41b2-9336-08d48a1ea21c.jpg","http://www7a.biglobe.ne.jp/~rozanji/","35.024599","135.768271","5"